[
  {
    "Job No.": "MI38977",
    "Description": "Various works as quotes",
    "address": "dereham",
    "Client": "Sprowston Academy (BHE Trust)",
    "Start Date:": "03/05/2023",
    "Priority:": 90,
    "latitude": 52.68161800000001,
    "longitude": 0.937827
  },
  {
    "Job No.": "DI38987",
    "Description": "attend to smoke alarms beeping",
    "address": "18 Vicarage Road Cromer NR27 9DQ",
    "Client": "Diocese of Norwich*",
    "Start Date:": "04/05/2023",
    "Priority:": 90,
    "latitude": 52.92860659999999,
    "longitude": 1.3011262
  },
  {
    "Job No.": "NP39000",
    "Description": "Attend to loose switch in older classroom",
    "address": "Fred Nicholson School Dereham NR19 1JB",
    "Client": "Norfolk County Council*",
    "Start Date:": "09/05/2023",
    "Priority:": 90,
    "latitude": 52.665173,
    "longitude": 0.9439630000000001
  },
  {
    "Job No.": "DI38996",
    "Description": "EICR and install smoke & CO detectors",
    "address": "7 Chapel Court NR6 5NU",
    "Client": "Diocese of Norwich*",
    "Start Date:": "05/05/2023",
    "Priority:": 90,
    "latitude": 52.66389720000001,
    "longitude": 1.2668607
  },
  {
    "Job No.": "MI38995",
    "Description": "attend to tripping issue",
    "address": "8 Gildencroft NR3 1DS",
    "Client": "Ms M J Stevens*",
    "Start Date:": "05/05/2023",
    "Priority:": 90,
    "latitude": 52.6369254,
    "longitude": 1.2919294
  },
  {
    "Job No.": "MI38992",
    "Description": "replace 2no downlights in kitchen and 6ft batten on stage as quote",
    "address": "Broom Avenue Hellesdon (St Peters Church)",
    "Client": "Not Customer related",
    "Start Date:": "05/05/2023",
    "Priority:": 90,
    "latitude": 52.6624027,
    "longitude": 1.2710067
  },
  {
    "Job No.": "MI38991",
    "Description": "various works as quote",
    "address": "Dodmans Tunstead Road Hoveton NR12 8QN(Mr N Clark)",
    "Client": "Not Customer related",
    "Start Date:": "05/05/2023",
    "Priority:": 90,
    "latitude": 52.7173507,
    "longitude": 1.4132335
  },
  {
    "Job No.": "MI38990",
    "Description": "all as quote",
    "address": "Attend to replace single socket for twin in kitchen. Feed potato peeler flex behind worktop and install new plug top",
    "Client": "Tuckswood Primary School* (BHE Trust)",
    "Start Date:": "05/05/2023",
    "Priority:": 90
  },
  {
    "Job No.": "WA38989",
    "Description": "provide quote to install PIR detectors to outside lights to hold off overnight",
    "address": "1_5 Indigo Yard Oak Street NR3 3QZ",
    "Client": "Watsons Management*",
    "Start Date:": "05/05/2023",
    "Priority:": 90,
    "latitude": 52.6327369,
    "longitude": 1.2899416
  },
  {
    "Job No.": "MC38988",
    "Description": "attend to broken commando socket and change commando to commando socket",
    "address": "Brundall",
    "Client": "McDonalds (Brundall)*",
    "Start Date:": "03/05/2023",
    "Priority:": 90,
    "latitude": 52.624025,
    "longitude": 1.436542
  },
  {
    "Job No.": "BI38985",
    "Description": "PAT",
    "address": "16 Upper King Street NR3 1HA",
    "Client": "Bidwells LLP*",
    "Start Date:": "05/05/2023",
    "Priority:": 90,
    "latitude": 52.63044439999999,
    "longitude": 1.2985095
  },
  {
    "Job No.": "BI38984",
    "Description": "emergency lighting duration check",
    "address": "16 Upper King Street NR3 1HA",
    "Client": "Bidwells LLP*",
    "Start Date:": "04/05/2023",
    "Priority:": 90,
    "latitude": 52.63044439999999,
    "longitude": 1.2985095
  },
  {
    "Job No.": "BI38983",
    "Description": "attend to faulty socket",
    "address": "16 Upper King Street NR3 1HA",
    "Client": "Bidwells LLP*",
    "Start Date:": "04/05/2023",
    "Priority:": 90,
    "latitude": 52.63044439999999,
    "longitude": 1.2985095
  },
  {
    "Job No.": "MI38982",
    "Description": "attend to office spur tripping",
    "address": "Stalham Academy NR12 9PS",
    "Client": "Stalham Academy (BHE Trust)",
    "Start Date:": "04/05/2023",
    "Priority:": 90,
    "latitude": 52.768614,
    "longitude": 1.5254237
  },
  {
    "Job No.": "YMC38980",
    "Description": "ground floor flat EICR",
    "address": "Flat 8 Alexandra Road NR2 3EB",
    "Client": "YMCA Norfolk*",
    "Start Date:": "03/05/2023",
    "Priority:": 90,
    "latitude": 52.6310954,
    "longitude": 1.2758115
  },
  {
    "Job No.": "MI38977",
    "Description": "attend to burnt out light fitting",
    "address": "Mile cross Lane",
    "Client": "Holden Eastern Ltd t/a Holden Honda",
    "Start Date:": "03/05/2023",
    "Priority:": 3,
    "latitude": 52.6570574,
    "longitude": 1.2864678
  },
  {
    "Job No.": "MI38975",
    "Description": "attend to possibly faulty RCD cooker and microwave causing it to trip",
    "address": "2 Brandiston Barn Cottage Cawston NR10 4PL(Mr J Clarke)",
    "Client": "Not Customer related",
    "Start Date:": "03/05/2023",
    "Priority:": 90,
    "latitude": 52.7562301,
    "longitude": 1.1694266
  },
  {
    "Job No.": "NP38974",
    "Description": "attend to ceiling lights in class 5 not working",
    "address": "Great Ellingham Primary NR17 1HX",
    "Client": "Norfolk County Council*",
    "Start Date:": "03/05/2023",
    "Priority:": 3,
    "latitude": 52.5373493,
    "longitude": 0.9735187999999998
  },
  {
    "Job No.": "NP38973",
    "Description": "attend to broken light pull in ladies toilet",
    "address": "Great Ellingham Primary NR17 1HX",
    "Client": "Norfolk County Council*",
    "Start Date:": "03/05/2023",
    "Priority:": 90,
    "latitude": 52.5373493,
    "longitude": 0.9735187999999998
  },
  {
    "Job No.": "DI38972",
    "Description": "check suitability for car charger NRI quote for best option",
    "address": "The Rectory 6 Redcastle Road Thetford IP24 3NF",
    "Client": "Diocese of Norwich*",
    "Start Date:": "03/05/2023",
    "Priority:": 90,
    "latitude": 52.41293899999999,
    "longitude": 0.7290562
  },
  {
    "Job No.": "MI38969",
    "Description": "130 Barker Street",
    "address": "128",
    "Client": "Norfolk Motor Group Ltd t/as Holden Kia",
    "Start Date:": "03/05/2023",
    "Priority:": 90
  },
  {
    "Job No.": "MI38968",
    "Description": "",
    "address": "Attend to faulty light switch in room 10",
    "Client": "North Walsham Junior School*(BHE Trust)",
    "Start Date:": "02/05/2023",
    "Priority:": 90
  },
  {
    "Job No.": "MI38967",
    "Description": "replace lighting as quote",
    "address": "Abbey Court, Norwich",
    "Client": "Crown Management UK Ltd",
    "Start Date:": "03/05/2023",
    "Priority:": 90,
    "latitude": 52.619718,
    "longitude": 1.3027844
  },
  {
    "Job No.": "MI38966",
    "Description": "install new socket as instructed",
    "address": "Stalham Academy NR12 9PS",
    "Client": "Stalham Academy (BHE Trust)",
    "Start Date:": "02/05/2023",
    "Priority:": 90,
    "latitude": 52.768614,
    "longitude": 1.5254237
  },
  {
    "Job No.": "MI38965",
    "Description": "attend to broken light switch in year 5/6 girls toilet",
    "address": "Stalham Academy NR12 9PS",
    "Client": "Stalham Academy (BHE Trust)",
    "Start Date:": "02/05/2023",
    "Priority:": 90,
    "latitude": 52.768614,
    "longitude": 1.5254237
  },
  {
    "Job No.": "NP38963",
    "Description": "disconnect both pottery kilns at isolators and kilns",
    "address": "Colman Junior NR4 7AU",
    "Client": "Norfolk County Council*",
    "Start Date:": "02/05/2023",
    "Priority:": 90,
    "latitude": 52.6204687,
    "longitude": 1.2625727
  },
  {
    "Job No.": "YMC38962",
    "Description": "EICR",
    "address": "69 Lilburne Avenue NR3 3NZ",
    "Client": "YMCA Norfolk*",
    "Start Date:": "03/05/2023",
    "Priority:": 90,
    "latitude": 52.6510668,
    "longitude": 1.2890615
  },
  {
    "Job No.": "MI38960",
    "Description": "EICR as quote ",
    "address": "Rose Cottage The Street Swanton Abbott NR10 5DU(James Beales)",
    "Client": "Not Customer related",
    "Start Date:": "02/05/2023",
    "Priority:": 90,
    "latitude": 52.7802951,
    "longitude": 1.3560861
  },
  {
    "Job No.": "MI38959",
    "Description": "strip out as per quote",
    "address": "Old IT Office",
    "Client": "Sprowston Academy (BHE Trust)",
    "Start Date:": "02/05/2023",
    "Priority:": 90
  },
  {
    "Job No.": "WA38958",
    "Description": "attend to bin store and front wall light tripping",
    "address": "The Factory, Kerrison Road, Norwich",
    "Client": "Watsons Management*",
    "Start Date:": "02/05/2023",
    "Priority:": 90,
    "latitude": 52.621876,
    "longitude": 1.3121864
  },
  {
    "Job No.": "BR38943",
    "Description": "carry out EICR of landlords as quote",
    "address": "Thorpe Park, Norwich",
    "Client": "Brown & Co",
    "Start Date:": "02/05/2023",
    "Priority:": 90,
    "latitude": 52.6292567,
    "longitude": 1.2978802
  },
  {
    "Job No.": "MC38941",
    "Description": "replace broken socket for compactor",
    "address": "Cromer",
    "Client": "McDonalds (Cromer)*",
    "Start Date:": "02/05/2023",
    "Priority:": 90,
    "latitude": 52.931448,
    "longitude": 1.301866
  },
  {
    "Job No.": "YMC38997",
    "Description": "2nd & 3rd floor cupboards",
    "address": "Central",
    "Client": "YMCA Norfolk*",
    "Start Date:": "05/05/2023",
    "Priority:": 90
  },
  {
    "Job No.": "WA38955",
    "Description": "attend to communal area lighting one on sensor on dusk to dawn rather than movement one light not working",
    "address": "Spooners Wharf Kings Street NR1 2FF",
    "Client": "Watsons Management*",
    "Start Date:": "24/04/2023",
    "Priority:": 90,
    "latitude": 52.62201049999999,
    "longitude": 1.3048003
  },
  {
    "Job No.": "MI38914",
    "Description": "",
    "address": "Lighting repairs as quote ",
    "Client": "Roundwell Medical Centre",
    "Start Date:": "21/04/2023",
    "Priority:": 90
  },
  {
    "Job No.": "IN38951",
    "Description": "attend to works removing and installed dado trunking as quote",
    "address": "Jane Austen College",
    "Client": "Inspiration Trust Finance Department*",
    "Start Date:": "27/04/2023",
    "Priority:": 90,
    "latitude": 52.6328745,
    "longitude": 1.2931773
  },
  {
    "Job No.": "WA38950",
    "Description": "EICR",
    "address": "273 London Road South Lowestoft NR33 0DS",
    "Client": "Watsons Management*",
    "Start Date:": "27/04/2023",
    "Priority:": 90,
    "latitude": 52.4658796,
    "longitude": 1.7428621
  },
  {
    "Job No.": "NP38949",
    "Description": "attend to strip light out in boys toilet",
    "address": "Tunstead Primary NR12 8AH",
    "Client": "Norfolk County Council*",
    "Start Date:": "27/04/2023",
    "Priority:": 90,
    "latitude": 52.745506,
    "longitude": 1.4018723
  },
  {
    "Job No.": "AR38948",
    "Description": "attend to light fitting on ground floor ladies w.c",
    "address": "20 Central Avenue, Norwich. NR7 0HR",
    "Client": "Arnolds Keys LLP",
    "Start Date:": "27/04/2023",
    "Priority:": 90,
    "latitude": 52.630247,
    "longitude": 1.3654832
  },
  {
    "Job No.": "MI38947",
    "Description": "attend to faulty socket in head teachers office",
    "address": "Martham Academy",
    "Client": "Broad Horizons Education Trust*",
    "Start Date:": "27/04/2023",
    "Priority:": 90,
    "latitude": 52.70538699999999,
    "longitude": 1.628141
  },
  {
    "Job No.": "NOR38946",
    "Description": "attend site to rectify issues with electric heater",
    "address": "Norwich Strangers Hall",
    "Client": "Norse Eastern Ltd*",
    "Start Date:": "27/04/2023",
    "Priority:": 90,
    "latitude": 52.6307068,
    "longitude": 1.2924808
  },
  {
    "Job No.": "NP38945",
    "Description": "attend to fluorescent light not working in swimming pool",
    "address": "Hethersett Primary NR9 3DB",
    "Client": "Norfolk County Council*",
    "Start Date:": "27/04/2023",
    "Priority:": 90,
    "latitude": 52.59912869999999,
    "longitude": 1.1821294
  },
  {
    "Job No.": "NOR38944",
    "Description": "attend to lighting in trade and treasure (as per email to AB 19/4/23)",
    "address": "Norwich Castle Museum",
    "Client": "Norse Eastern Ltd*",
    "Start Date:": "27/04/2023",
    "Priority:": 90,
    "latitude": 52.6287277,
    "longitude": 1.2961591
  },
  {
    "Job No.": "MI38942",
    "Description": "install socket for electric fire",
    "address": "43 Hellesdon Road NR6 5EE",
    "Client": "Mrs Sage*",
    "Start Date:": "27/04/2023",
    "Priority:": 90,
    "latitude": 52.640045,
    "longitude": 1.2489487
  },
  {
    "Job No.": "MI38939",
    "Description": "LED lighting replacements as quote",
    "address": "St James Mill Whitefriars",
    "Client": "Jarrold & Sons (FAO E Smith)",
    "Start Date:": "27/04/2023",
    "Priority:": 90
  },
  {
    "Job No.": "NP38938",
    "Description": "supply temp heaters",
    "address": "Buxton Primary School NR10 5EZ",
    "Client": "Norfolk County Council*",
    "Start Date:": "26/04/2023",
    "Priority:": 90,
    "latitude": 52.7563367,
    "longitude": 1.3080888
  },
  {
    "Job No.": "MI38936",
    "Description": "",
    "address": "Garden sockets",
    "Client": "Mr D Miller",
    "Start Date:": "26/04/2023",
    "Priority:": 90
  },
  {
    "Job No.": "MI38929",
    "Description": "",
    "address": "Attend to flickering lights and check how kitchen lights are controlled",
    "Client": "Savills (UK) Ltd*",
    "Start Date:": "26/04/2023",
    "Priority:": 90
  },
  {
    "Job No.": "MI38934",
    "Description": "",
    "address": "Install sockets as quote",
    "Client": "Swanton Abbott Community Primary School",
    "Start Date:": "26/04/2023",
    "Priority:": 90
  },
  {
    "Job No.": "MI38927",
    "Description": "",
    "address": "Replacement LED lighting throughout school as quote",
    "Client": "Barnham Broom C of E VA Primary School",
    "Start Date:": "26/04/2023",
    "Priority:": 90
  },
  {
    "Job No.": "NP38924",
    "Description": "Attend to supply 6 no heaters ",
    "address": "Catfield Primary NR29 5DA",
    "Client": "Norfolk County Council*",
    "Start Date:": "25/04/2023",
    "Priority:": 90,
    "latitude": 52.7358291,
    "longitude": 1.5270361
  },
  {
    "Job No.": "WA38923",
    "Description": "EICR ",
    "address": "Regency Court Lower Clarence rd NR1 1ER",
    "Client": "Watsons Management*",
    "Start Date:": "24/04/2023",
    "Priority:": 90,
    "latitude": 52.6268888,
    "longitude": 1.3082274
  },
  {
    "Job No.": "RU38920",
    "Description": "EICR",
    "address": "TRO Burton Road, Norwich",
    "Client": "TRO Group Limited",
    "Start Date:": "25/04/2023",
    "Priority:": 90,
    "latitude": 52.6623619,
    "longitude": 1.285461
  },
  {
    "Job No.": "WA38922",
    "Description": "118 Bertram Way Rosary Road, NR1 1FD",
    "address": "63",
    "Client": "Watsons Management*",
    "Start Date:": "25/04/2023",
    "Priority:": 63
  },
  {
    "Job No.": "MI38911",
    "Description": "Distribution Board Small power and UIT works as quote ",
    "address": "Recreation Rd NR2 3PA",
    "Client": "Recreation Road Infant School",
    "Start Date:": "24/04/2023",
    "Priority:": 90,
    "latitude": 52.6273853,
    "longitude": 1.2699434
  },
  {
    "Job No.": "MI38909",
    "Description": "Install 3 PH + N Commando socket and replacement switches in ladies WC (Change to PIR switches )",
    "address": "The Pavilion Recreation Ground Church St Old Catton",
    "Client": "Old Catton Parish Council*",
    "Start Date:": "24/04/2023",
    "Priority:": 90,
    "latitude": 52.71688220000001,
    "longitude": 1.209724
  },
  {
    "Job No.": "MI38906",
    "Description": "Install supply as quote ",
    "address": "William Frost Way Costessey NR5 OJS",
    "Client": "Telec Networks Ltd*",
    "Start Date:": "24/04/2023",
    "Priority:": 90,
    "latitude": 52.6537605,
    "longitude": 1.1857566
  },
  {
    "Job No.": "MI38907",
    "Description": "Attend to install socket in garage and external light as quote ",
    "address": "66 Meadow Way NR6 6XX(Mattew Whiffin)",
    "Client": "Not Customer related",
    "Start Date:": "24/04/2023",
    "Priority:": 90
  },
  {
    "Job No.": "AR38916",
    "Description": "Attend to remedials ",
    "address": "Unit 9 Whiting Road NR4 6DJ",
    "Client": "Arnolds Keys LLP",
    "Start Date:": "24/04/2023",
    "Priority:": 90,
    "latitude": 52.6075276,
    "longitude": 1.2922088
  },
  {
    "Job No.": "WA38913",
    "Description": "Attend to ceiling light in corridor above flat 51 Chapelfield Block B",
    "address": "Chapelfield Developments",
    "Client": "Watsons Management*",
    "Start Date:": "24/04/2023",
    "Priority:": 90
  },
  {
    "Job No.": "NP38912",
    "Description": "reattend to auto sensor light in main foyer and staff toilet",
    "address": "Forncett St Peter Primary NR16 1LT",
    "Client": "Norfolk County Council*",
    "Start Date:": "24/04/2023",
    "Priority:": 90,
    "latitude": 52.489798,
    "longitude": 1.18721
  },
  {
    "Job No.": "AR38903",
    "Description": "Annual emergency lighting check",
    "address": "Bagleys Court",
    "Client": "Arnolds Keys LLP",
    "Start Date:": "21/04/2023",
    "Priority:": 90,
    "latitude": 52.6290985,
    "longitude": 1.2927578
  },
  {
    "Job No.": "AR38902",
    "Description": "Attend to hand dryer of bagleys house w/c located in basement of building staircase to left handside stairs downwards after come through front door ",
    "address": "Bagleys Court",
    "Client": "Arnolds Keys LLP",
    "Start Date:": "21/04/2023",
    "Priority:": 90,
    "latitude": 52.6290985,
    "longitude": 1.2927578
  },
  {
    "Job No.": "BR38900",
    "Description": "19 St Georges St NR3 1AB",
    "address": "13",
    "Client": "Brown & Co",
    "Start Date:": "21/04/2023",
    "Priority:": 90
  },
  {
    "Job No.": "DI38899",
    "Description": "Remedials including 2,5,7 and 14",
    "address": "The Rectory 1 Main Rd Fleggburgh NR29 3AG",
    "Client": "Diocese of Norwich*",
    "Start Date:": "21/04/2023",
    "Priority:": 90,
    "latitude": 52.6730899,
    "longitude": 1.5928275
  },
  {
    "Job No.": "MI38896",
    "Description": "Attend to flashing lights in main office 2 lights out and socket getting warm in julies office ",
    "address": "69_75 Thorpe Rd NR1 1UA",
    "Client": "MJP Conveyancing",
    "Start Date:": "21/04/2023",
    "Priority:": 90,
    "latitude": 52.624784,
    "longitude": 1.3192138
  },
  {
    "Job No.": "MI38882",
    "Description": "EICR ",
    "address": "Tollgate Cottage",
    "Client": "Bawdeswell Properties",
    "Start Date:": "20/04/2023",
    "Priority:": 90
  },
  {
    "Job No.": "MI38878",
    "Description": "EICR ",
    "address": "34 A Colegate NR3 1BG",
    "Client": "Premier Properties (East Anglia) Ltd",
    "Start Date:": "19/04/2023",
    "Priority:": 90,
    "latitude": 52.6329712,
    "longitude": 1.2945468
  },
  {
    "Job No.": "CC38891",
    "Description": "",
    "address": "VR Room small power works to Digitech",
    "Client": "City College - Finance Department*",
    "Start Date:": "21/04/2023",
    "Priority:": 90
  },
  {
    "Job No.": "AR38888",
    "Description": "PAT",
    "address": "Old Church",
    "Client": "Arnolds Keys LLP",
    "Start Date:": "21/04/2023",
    "Priority:": 90
  },
  {
    "Job No.": "MI38886",
    "Description": "Remedials from EICR ",
    "address": "5 Hazell Rd Nth Walsham NR28 OST",
    "Client": "Mr M Payne",
    "Start Date:": "20/04/2023",
    "Priority:": 90,
    "latitude": 52.8290015,
    "longitude": 1.3883862
  },
  {
    "Job No.": "MI38885",
    "Description": "EICR ",
    "address": "Dairy Cottage, Bawdeswell",
    "Client": "Bawdeswell Properties",
    "Start Date:": "20/04/2023",
    "Priority:": 90,
    "latitude": 52.74606010000001,
    "longitude": 1.0290079
  },
  {
    "Job No.": "MI38884",
    "Description": "EICR ",
    "address": "Grooms Cottage, Bawdeswell",
    "Client": "Bawdeswell Properties",
    "Start Date:": "20/04/2023",
    "Priority:": 90,
    "latitude": 52.74606010000001,
    "longitude": 1.0290079
  },
  {
    "Job No.": "MI38881",
    "Description": "EICR ",
    "address": "Thistle Acre, Bawdeswell",
    "Client": "Bawdeswell Properties",
    "Start Date:": "20/04/2023",
    "Priority:": 90,
    "latitude": 52.74606010000001,
    "longitude": 1.0290079
  },
  {
    "Job No.": "MI38883",
    "Description": "EICR ",
    "address": "Holly Cottage Bawdeswell",
    "Client": "Bawdeswell Properties",
    "Start Date:": "20/04/2023",
    "Priority:": 90,
    "latitude": 52.74606010000001,
    "longitude": 1.0290079
  },
  {
    "Job No.": "MI38870",
    "Description": "replace strip light under mezzanine",
    "address": "Unit 6 Hellesdon Park Road",
    "Client": "Dean & Wood Ltd",
    "Start Date:": "18/04/2023",
    "Priority:": 90,
    "latitude": 52.6530626,
    "longitude": 1.2586883
  },
  {
    "Job No.": "NP38873",
    "Description": "attend to 2lights not working in Year 2 classroom and 1 not working in Year 6 (same lights as previous order)",
    "address": "St Georges Primary Great Yarmouth NR30 3BQ",
    "Client": "Norfolk County Council*",
    "Start Date:": "18/04/2023",
    "Priority:": 90,
    "latitude": 52.602336,
    "longitude": 1.7337211
  },
  {
    "Job No.": "MI38868",
    "Description": "Attend to bathroom pull switch faulty Kitchen transformer disconnect old alarm parts ",
    "address": "73 Linacre Avenue NR7 8JS",
    "Client": "Mr T Shreeve",
    "Start Date:": "18/04/2023",
    "Priority:": 90,
    "latitude": 52.6567443,
    "longitude": 1.3343626
  },
  {
    "Job No.": "MI38867",
    "Description": "EICR ",
    "address": "Erpingham Primary School School Road Erpingham NR11 7QY",
    "Client": "Erpingham VC Primary School* (Blue Sky Federation)",
    "Start Date:": "18/04/2023",
    "Priority:": 90,
    "latitude": 52.83539769999999,
    "longitude": 1.2528706
  },
  {
    "Job No.": "NP38862",
    "Description": "Attend to replace 4 no street lights as per our quotation ",
    "address": "Earsham Primary",
    "Client": "Norfolk County Council*",
    "Start Date:": "18/04/2023",
    "Priority:": 90,
    "latitude": 52.45358299999999,
    "longitude": 1.4220691
  },
  {
    "Job No.": "DI38854",
    "Description": "Attend to carry out general electrical check and liase with Neil (Plumber) regarding an electric shower over time ",
    "address": "The Rectory Back Street Garboldisham IP22 25D",
    "Client": "Diocese of Norwich*",
    "Start Date:": "17/04/2023",
    "Priority:": 90,
    "latitude": 52.3985129,
    "longitude": 0.9431587
  },
  {
    "Job No.": "NP38849",
    "Description": "attend to faulty light 600x600 panel in ceiling in blue classroom not working",
    "address": "Harford Manor School NR2 2LN",
    "Client": "Norfolk County Council*",
    "Start Date:": "14/04/2023",
    "Priority:": 90,
    "latitude": 52.6131858,
    "longitude": 1.2835932
  },
  {
    "Job No.": "NP38845",
    "Description": "attend to remedial works and emergency light repairs as per our quote",
    "address": "Duckett Pre School NR1 2LR",
    "Client": "Norfolk County Council*",
    "Start Date:": "14/04/2023",
    "Priority:": 90,
    "latitude": 52.6087319,
    "longitude": 1.2958872
  },
  {
    "Job No.": "BR38841",
    "Description": "EICR",
    "address": "3 Dunston Cottages Ipswich Road NR4 6DY",
    "Client": "Brown & Co",
    "Start Date:": "14/04/2023",
    "Priority:": 90,
    "latitude": 52.5962189,
    "longitude": 1.2750776
  },
  {
    "Job No.": "BR38840",
    "Description": "EICR",
    "address": "2 Dunston Cottages Ipswich Road NR4 6DY",
    "Client": "Brown & Co",
    "Start Date:": "14/04/2023",
    "Priority:": 90,
    "latitude": 52.5962189,
    "longitude": 1.2750776
  },
  {
    "Job No.": "NOR38839",
    "Description": "EICR",
    "address": "Easthills Residential Unit NR5 0PD",
    "Client": "Norse Eastern Ltd*",
    "Start Date:": "14/04/2023",
    "Priority:": 90,
    "latitude": 52.6487627,
    "longitude": 1.2064804
  },
  {
    "Job No.": "NOR38838",
    "Description": "attend to double light fitting not working in appliance bay",
    "address": "North Walsham Fire Station",
    "Client": "Norse Eastern Ltd*",
    "Start Date:": "14/04/2023",
    "Priority:": 90,
    "latitude": 52.8206425,
    "longitude": 1.3897182
  },
  {
    "Job No.": "MI38836",
    "Description": "PAT",
    "address": "Kenninghall Road, Banham NR16 2HE",
    "Client": "Zoological Society of East Anglia",
    "Start Date:": "14/04/2023",
    "Priority:": 90,
    "latitude": 52.4467085,
    "longitude": 1.0223379
  },
  {
    "Job No.": "MI38835",
    "Description": "PAT",
    "address": "Drayton Industrial Estate, Taverham Road NR8 6RL",
    "Client": "Ian Smith Group*",
    "Start Date:": "14/04/2023",
    "Priority:": 90,
    "latitude": 52.676056,
    "longitude": 1.2212126
  },
  {
    "Job No.": "NP38846",
    "Description": "attend to replace 12no hand dryers as per quotation (remove and dispose of old dryers and where possible cover existing holes)`",
    "address": "Queenshill Primary NR8 5AL",
    "Client": "Norfolk County Council*",
    "Start Date:": "14/04/2023",
    "Priority:": 90,
    "latitude": 52.6661167,
    "longitude": 1.181891
  },
  {
    "Job No.": "MI38830",
    "Description": "attend to pull switch in bathroom and under counter lights",
    "address": "73 Linacre Avenue NR7 8JS",
    "Client": "Mr T Shreeve",
    "Start Date:": "13/04/2023",
    "Priority:": 90,
    "latitude": 52.6567443,
    "longitude": 1.3343626
  },
  {
    "Job No.": "MI38815",
    "Description": "EICR",
    "address": "Lilian Close Norwich NR6 6RZ",
    "Client": "Michael Richards & Co",
    "Start Date:": "12/04/2023",
    "Priority:": 90,
    "latitude": 52.6581305,
    "longitude": 1.280292
  },
  {
    "Job No.": "MI38790",
    "Description": "Mr & Mrs Dye",
    "address": "Rodwell Farm Mill Farm Shissonsett NR20 5SR",
    "Client": "Not Customer related",
    "Start Date:": "04/04/2023",
    "Priority:": 90,
    "latitude": 52.7718153,
    "longitude": 0.8361063
  },
  {
    "Job No.": "MI38804",
    "Description": "replace broken twin in bedroom with USB, 1no broken in kitchen with USB, and 1no in kitchen with standard and attend to faulty external light (Laura Marvell)",
    "address": "4 Meadow Loke Bawdeswell NR20 4WG",
    "Client": "Not Customer related",
    "Start Date:": "06/04/2023",
    "Priority:": 90,
    "latitude": 52.7466583,
    "longitude": 1.0267813
  },
  {
    "Job No.": "NO38763",
    "Description": "to install 6no free issue LED strip drivers and profiles as per quote",
    "address": "Strangers Hall",
    "Client": "Norfolk CC* (invoices@norfolk.gov.uk)",
    "Start Date:": "29/03/2023",
    "Priority:": 90,
    "latitude": 52.6307068,
    "longitude": 1.2924808
  },
  {
    "Job No.": "WR38755",
    "Description": "EICR May need rewiring don't both test if that is the case",
    "address": "28 Camberley Church Road, Hoveton NR12 8UG",
    "Client": "Wroxham Builders*",
    "Start Date:": "28/03/2023",
    "Priority:": 1000,
    "latitude": 52.71236649999999,
    "longitude": 1.4127231
  },
  {
    "Job No.": "WA38664",
    "Description": "EICR ",
    "address": "15_21 Bertram Way NR11EU",
    "Client": "Watsons Management*",
    "Start Date:": "27/03/2023",
    "Priority:": 90,
    "latitude": 52.6303912,
    "longitude": 1.3093708
  },
  {
    "Job No.": "DI38743",
    "Description": "Remedials ",
    "address": "The Vicarage 22 Little John Rd NR4 6BH",
    "Client": "Diocese of Norwich*",
    "Start Date:": "28/03/2023",
    "Priority:": 90,
    "latitude": 52.6096124,
    "longitude": 1.2838281
  },
  {
    "Job No.": "DI38745",
    "Description": "Remedials items 6 8 9 10 11 12 ",
    "address": "1 Drays Yard NR1 1RL",
    "Client": "Diocese of Norwich*",
    "Start Date:": "28/03/2023",
    "Priority:": 90,
    "latitude": 52.6253027,
    "longitude": 1.3012122
  },
  {
    "Job No.": "DI38746",
    "Description": "Remedials item 1,2 13",
    "address": "The Rectory Barn Close Lingwood NR13 4TS",
    "Client": "Diocese of Norwich*",
    "Start Date:": "28/03/2023",
    "Priority:": 90,
    "latitude": 52.6251259,
    "longitude": 1.488604
  },
  {
    "Job No.": "DI38747",
    "Description": "Remedials and items 1&2",
    "address": "The Rectory The Hill Happisburgh NR12 OPW",
    "Client": "Diocese of Norwich*",
    "Start Date:": "28/03/2023",
    "Priority:": 90,
    "latitude": 52.8247583,
    "longitude": 1.5319751
  },
  {
    "Job No.": "DI38748",
    "Description": "Remedials on items 1 7 11 14",
    "address": "24 Rectory Road Coltishall NR12 7HL",
    "Client": "Diocese of Norwich*",
    "Start Date:": "28/03/2023",
    "Priority:": 90,
    "latitude": 52.7306517,
    "longitude": 1.3622974
  },
  {
    "Job No.": "NP38750",
    "Description": "Attend to install 5 no supplies as per quotation ",
    "address": "Tunstead Primary NR12 8AH",
    "Client": "Norfolk County Council*",
    "Start Date:": "28/03/2023",
    "Priority:": 90,
    "latitude": 52.745506,
    "longitude": 1.4018723
  },
  {
    "Job No.": "YMC38731",
    "Description": "Install new em light and reposition ",
    "address": "Aylsham Road NR3 2HF",
    "Client": "YMCA Norfolk*",
    "Start Date:": "28/03/2023",
    "Priority:": 90,
    "latitude": 52.6425509,
    "longitude": 1.2867256
  },
  {
    "Job No.": "NP38690",
    "Description": "Attend to 2 lights not working in year 2 and year 6",
    "address": "St Georges Primary NR30 3BG",
    "Client": "Norfolk County Council*",
    "Start Date:": "23/03/2023",
    "Priority:": 90,
    "latitude": 52.6022416,
    "longitude": 1.7332963
  },
  {
    "Job No.": "MI38688",
    "Description": "Attend to replace light in kitchen with LED unit and check other lights in office ",
    "address": "Jaquard House, Old Bank of England Court, Norwich",
    "Client": "Social Network Solutions",
    "Start Date:": "23/03/2023",
    "Priority:": 90,
    "latitude": 52.63070099999999,
    "longitude": 1.2977717
  },
  {
    "Job No.": "MI38696",
    "Description": "Attend to faulty emergeny light ",
    "address": "St Clements NR3 4AR",
    "Client": "Broad Horizons Education Trust*",
    "Start Date:": "23/03/2023",
    "Priority:": 90,
    "latitude": 52.6476401,
    "longitude": 1.3045371
  },
  {
    "Job No.": "MI38660",
    "Description": "install 6no hand dryers hygiene rooms",
    "address": "Sheringham Woodfields School",
    "Client": "Sheringham Woodfields School",
    "Start Date:": "20/03/2023",
    "Priority:": 90,
    "latitude": 52.93466919999999,
    "longitude": 1.1986149
  },
  {
    "Job No.": "MI38675",
    "Description": "Remedials as quote",
    "address": "Blades, Norwich",
    "Client": "Blades",
    "Start Date:": "21/03/2023",
    "Priority:": 90,
    "latitude": 52.629866,
    "longitude": 1.2920241
  },
  {
    "Job No.": "DI38669",
    "Description": "Remedials following EICR ",
    "address": "42 Heigham Street NR2 3AU",
    "Client": "Diocese of Norwich*",
    "Start Date:": "21/03/2023",
    "Priority:": 90,
    "latitude": 52.6377216,
    "longitude": 1.2812805
  },
  {
    "Job No.": "DI38656",
    "Description": "Remedials as quote",
    "address": "2 Elmgrove Road Gorleston NR31 7PP",
    "Client": "Diocese of Norwich*",
    "Start Date:": "20/03/2023",
    "Priority:": 90,
    "latitude": 52.57040240000001,
    "longitude": 1.7237539
  },
  {
    "Job No.": "NP38624",
    "Description": "Remedials following EICR ",
    "address": "Hickling Infant",
    "Client": "Norfolk County Council*",
    "Start Date:": "16/03/2023",
    "Priority:": 90
  },
  {
    "Job No.": "MI38638",
    "Description": "EICR Check smokes and Co Replace if not lithium",
    "address": "No 6 Bradenham Hall Cottages Thetford IP25 7QS",
    "Client": "Bradenham Hall Farms*",
    "Start Date:": "17/03/2023",
    "Priority:": 90,
    "latitude": 52.6487188,
    "longitude": 0.8409552
  },
  {
    "Job No.": "MI38635",
    "Description": "Maintenance works as required ",
    "address": "Norwich Electrical Unit 5 Hellsdon Park Road",
    "Client": "Not Customer related",
    "Start Date:": "17/03/2023",
    "Priority:": 90,
    "latitude": 52.6531327,
    "longitude": 1.2587616
  },
  {
    "Job No.": "MI38632",
    "Description": "Attend to lights out in reception ",
    "address": "Wellesley Avenue North Walsham NR1 4NU",
    "Client": "Lionwood Medical Practice*",
    "Start Date:": "17/03/2023",
    "Priority:": 90,
    "latitude": 52.6326129,
    "longitude": 1.3201799
  },
  {
    "Job No.": "NP38602",
    "Description": "Attend to school hall light two light not working outside light near front faulty",
    "address": "Reedham Primary NR13 3TJ",
    "Client": "Norfolk County Council*",
    "Start Date:": "14/03/2023",
    "Priority:": 90,
    "latitude": 52.5601169,
    "longitude": 1.5711468
  },
  {
    "Job No.": "MI38582",
    "Description": "Kitchen and living room alterations as quote ",
    "address": "41 Bull rush Close Horsford nr10 3SP",
    "Client": "Mr D Weaver",
    "Start Date:": "13/03/2023",
    "Priority:": 90,
    "latitude": 52.7008861,
    "longitude": 1.2376466
  },
  {
    "Job No.": "MI38588",
    "Description": "Attend to add emergency lighting ",
    "address": "Robert Kett Primary School",
    "Client": "Robert Kett Junior School*",
    "Start Date:": "13/03/2023",
    "Priority:": 90,
    "latitude": 52.5787426,
    "longitude": 1.1153538
  },
  {
    "Job No.": "WA38590",
    "Description": "Eicr ",
    "address": "Newmarket Court, Norwich NR4 6AQ",
    "Client": "Watsons Management*",
    "Start Date:": "13/03/2023",
    "Priority:": 90,
    "latitude": 52.6292567,
    "longitude": 1.2978802
  },
  {
    "Job No.": "TMB38551",
    "Description": "Various electric works ",
    "address": "100 Prince of Wales Road, Norwich",
    "Client": "T M Browne Ltd*",
    "Start Date:": "07/03/2023",
    "Priority:": 90,
    "latitude": 52.6288388,
    "longitude": 1.303791
  },
  {
    "Job No.": "MI38573",
    "Description": "EICR ",
    "address": "Unit 7 Roundtree Close",
    "Client": "Goodge Property Services",
    "Start Date:": "10/03/2023",
    "Priority:": 90,
    "latitude": 52.6470554,
    "longitude": 1.3220858
  },
  {
    "Job No.": "CEN38574",
    "Description": "Attend broken light switch ",
    "address": "bridewell Museum NR2 1AQ",
    "Client": "Centric*",
    "Start Date:": "13/03/2023",
    "Priority:": 90,
    "latitude": 52.63012690000001,
    "longitude": 1.2951455
  },
  {
    "Job No.": "WA38575",
    "Description": "EICR split Block 84_94 Block 93_103 Block 105_115",
    "address": "63_118 Bertram Way",
    "Client": "Watsons Management*",
    "Start Date:": "10/03/2023",
    "Priority:": 90,
    "latitude": 52.6303035,
    "longitude": 1.309837
  },
  {
    "Job No.": "WA38580",
    "Description": "New Ferry Yard The Malt House Kings St",
    "address": "New Half Moon Yard, Norwich",
    "Client": "Watsons Management*",
    "Start Date:": "10/03/2023",
    "Priority:": 90,
    "latitude": 52.6292567,
    "longitude": 1.2978802
  },
  {
    "Job No.": "MI38581",
    "Description": "Attend to replace fittings in down stair shop area as quote ",
    "address": "Albrow & Sons, Norwich",
    "Client": "Albrow & Sons*",
    "Start Date:": "10/03/2023",
    "Priority:": 90,
    "latitude": 52.6256572,
    "longitude": 1.295196
  },
  {
    "Job No.": "DI38522",
    "Description": "Works following test as quote 1 x heat detectors ",
    "address": "Mrs Rosalind Mobbs 1 Bullemer Close Stalham NR12 9AY",
    "Client": "Diocese of Norwich*",
    "Start Date:": "06/03/2023",
    "Priority:": 90,
    "latitude": 52.77517470000001,
    "longitude": 1.5162633
  },
  {
    "Job No.": "DI38530",
    "Description": "Works following EICR (REVD Martin)",
    "address": "The Rectory, Norwich Road, Acle NR13 3BU",
    "Client": "Diocese of Norwich*",
    "Start Date:": "06/03/2023",
    "Priority:": 90,
    "latitude": 52.69400700000001,
    "longitude": 1.337327
  },
  {
    "Job No.": "MI38543",
    "Description": "Complete works from quotation (previous job no MI37207)",
    "address": "Greenacres, Colney Norwich",
    "Client": "Greenacres Group Ltd*",
    "Start Date:": "07/03/2023",
    "Priority:": 90,
    "latitude": 52.6261127,
    "longitude": 1.2001659
  },
  {
    "Job No.": "MI38516",
    "Description": "Office refurb ",
    "address": "Sheringham Woodfields School",
    "Client": "Sheringham Woodfields School",
    "Start Date:": "06/03/2023",
    "Priority:": 90,
    "latitude": 52.93466919999999,
    "longitude": 1.1986149
  },
  {
    "Job No.": "MI38513",
    "Description": "Install 2no AC supplies ",
    "address": "Anne Colvin House Snetterton Norwich NR16 2LR",
    "Client": "World Horse Welfare Head Office*",
    "Start Date:": "03/03/2023",
    "Priority:": 90,
    "latitude": 52.4812087,
    "longitude": 0.935984
  },
  {
    "Job No.": "DR38504",
    "Description": "Extention and refurb as per quote ",
    "address": "26 Keswick Rd Cringleford NR4 6UG",
    "Client": "Draper & Nichols Ltd",
    "Start Date:": "03/03/2023",
    "Priority:": 90,
    "latitude": 52.6021315,
    "longitude": 1.2412242
  },
  {
    "Job No.": "BR38495",
    "Description": "Install new meter boxes and relocate supply Barn and Bungalow",
    "address": "Street Farm Bungalow Irstead St Irstead NR12 8XT",
    "Client": "Brown & Co",
    "Start Date:": "02/03/2023",
    "Priority:": 90,
    "latitude": 52.7219035,
    "longitude": 1.4909974
  },
  {
    "Job No.": "MI38453",
    "Description": "Carry out work to barn as quote ",
    "address": "Norfolk, UK",
    "Client": "Mr & Mrs Lambourn",
    "Start Date:": "27/02/2023",
    "Priority:": 90,
    "latitude": 52.6139686,
    "longitude": 0.8864021
  },
  {
    "Job No.": "NOR38424",
    "Description": "EICR (2 flats and communal area)",
    "address": "95 Stone Road Toftwood NR19 1LH",
    "Client": "Norse Eastern Ltd*",
    "Start Date:": "22/02/2023",
    "Priority:": 90,
    "latitude": 52.667337,
    "longitude": 0.9311266999999999
  },
  {
    "Job No.": "WR38416",
    "Description": "works as instructed",
    "address": "Sandfields, Swanton Abbott, Norfolk",
    "Client": "Wroxham Builders*",
    "Start Date:": "22/02/2023",
    "Priority:": 1000,
    "latitude": 52.778939,
    "longitude": 1.356096
  },
  {
    "Job No.": "WR38417",
    "Description": "Various site H&S works",
    "address": "Wroxham Builders, Wroxham",
    "Client": "Wroxham Builders*",
    "Start Date:": "22/02/2023",
    "Priority:": 1000,
    "latitude": 52.704308,
    "longitude": 1.4073119
  },
  {
    "Job No.": "NP38410",
    "Description": "attend to ext fan in ladies toilet not working",
    "address": "Harford Manor School NR2 2LN",
    "Client": "Norfolk County Council*",
    "Start Date:": "21/02/2023",
    "Priority:": 90,
    "latitude": 52.6131858,
    "longitude": 1.2835932
  },
  {
    "Job No.": "MI38399",
    "Description": "Replace lighting as quote",
    "address": "Carmelite House, Norwich",
    "Client": "Jarrold & Sons (FAO E Smith)",
    "Start Date:": "20/02/2023",
    "Priority:": 90,
    "latitude": 52.635225,
    "longitude": 1.3008216
  },
  {
    "Job No.": "WA38344",
    "Description": "EICR Communal areas and not occupied offices",
    "address": "St Faiths House Mountergate NR1 1PY",
    "Client": "Watsons Management*",
    "Start Date:": "14/02/2023",
    "Priority:": 90,
    "latitude": 52.627476,
    "longitude": 1.3026528
  },
  {
    "Job No.": "NP38341",
    "Description": "attend site and inspect intake and mains panel for water damage following roof leak. Report findings to Brian Oakley. Supply electrical warning sign/door to be kept locked on mains cupboard",
    "address": "Catfield Primary School NR29 5DA",
    "Client": "Norfolk County Council*",
    "Start Date:": "14/02/2023",
    "Priority:": 90,
    "latitude": 52.7353159,
    "longitude": 1.5300212
  },
  {
    "Job No.": "MI38351",
    "Description": "Carry out EICR as quote",
    "address": "St Clements Hill Primary, Norwich",
    "Client": "St Clements Hill Primary Academy*(BHE Trust)",
    "Start Date:": "14/02/2023",
    "Priority:": 90,
    "latitude": 52.6489011,
    "longitude": 1.2979
  },
  {
    "Job No.": "NOR38291",
    "Description": "EICR",
    "address": "NCC/Clover Hill 20 Humbelyard Bowthorpe NR5 9BN",
    "Client": "Norse Commercial Services Ltd*",
    "Start Date:": "07/02/2023",
    "Priority:": 90,
    "latitude": 52.6411904,
    "longitude": 1.2217085
  },
  {
    "Job No.": "NP38288",
    "Description": "Investigate a number of hand dryers which blow cold 1 puffins toilet 1 in House martins toilet pod 3 in Doves and in 1 Adult WC neart staff car park ",
    "address": "Cringleford CE VA Primary school Harts Lane NR4 7JR",
    "Client": "Norfolk County Council*",
    "Start Date:": "07/02/2023",
    "Priority:": 90,
    "latitude": 52.6083796,
    "longitude": 1.236481
  },
  {
    "Job No.": "BR38268",
    "Description": "disconnect main lights and install solar lights as per quote",
    "address": "15_21 Chestnut Close Costessey NR5 0PL",
    "Client": "Brown & Co",
    "Start Date:": "03/02/2023",
    "Priority:": 90,
    "latitude": 52.6494193,
    "longitude": 1.213221
  },
  {
    "Job No.": "NP38254",
    "Description": "attend site and repair 2 light fittings :",
    "address": "Overstrand The Belfry Primary NR27 0NT",
    "Client": "Norfolk County Council*",
    "Start Date:": "03/02/2023",
    "Priority:": 90,
    "latitude": 52.91622479999999,
    "longitude": 1.3347844
  },
  {
    "Job No.": "BR38257",
    "Description": "EICR",
    "address": "Stable Cottage Barton Hall Barton Turf NR12 8AU",
    "Client": "Brown & Co",
    "Start Date:": "03/02/2023",
    "Priority:": 90,
    "latitude": 52.74855489999999,
    "longitude": 1.4867288
  },
  {
    "Job No.": "WA38258",
    "Description": "EICR",
    "address": "10_13 Indigo Yard Oak Street NR3 3QZ",
    "Client": "Watsons Management*",
    "Start Date:": "03/02/2023",
    "Priority:": 90,
    "latitude": 52.6327369,
    "longitude": 1.2899416
  },
  {
    "Job No.": "WA38259",
    "Description": "EICR",
    "address": "1_5 Indigo Yard Oak Street NR3 3QZ",
    "Client": "Watsons Management*",
    "Start Date:": "03/02/2023",
    "Priority:": 90,
    "latitude": 52.6327369,
    "longitude": 1.2899416
  },
  {
    "Job No.": "DI38245",
    "Description": "attend to faulty cooker hood",
    "address": "The Vicarage 10 North St Sheringham NR26 8LW",
    "Client": "Diocese of Norwich*",
    "Start Date:": "02/02/2023",
    "Priority:": 90,
    "latitude": 52.9431233,
    "longitude": 1.2044274
  },
  {
    "Job No.": "MI38192",
    "Description": "Various areas, works as quote except letting office",
    "address": "Sprowston Academy",
    "Client": "Sprowston Academy (BHE Trust)",
    "Start Date:": "31/01/2023",
    "Priority:": 90,
    "latitude": 52.656354,
    "longitude": 1.320607
  },
  {
    "Job No.": "MI38185",
    "Description": "replace 2no extract fans check others and check for EICR",
    "address": "Broad view Cottage Irstead St Irstead NR12 8XT",
    "Client": "Sir A Habgood",
    "Start Date:": "27/01/2023",
    "Priority:": 90,
    "latitude": 52.7219237,
    "longitude": 1.490925
  },
  {
    "Job No.": "DI38156",
    "Description": "attend to remedials as quote plus discuss doorbell transformer and other items requiring comment",
    "address": "Diocesan House NR9 5ES",
    "Client": "Diocese of Norwich*",
    "Start Date:": "24/01/2023",
    "Priority:": 90,
    "latitude": 52.6540648,
    "longitude": 1.1527131
  },
  {
    "Job No.": "MI38126",
    "Description": "Consumer unit change, Garage supplies and PV supply as quote plus addittional twin socket as quote ",
    "address": "19 Wheel Road Alpington NR14 7RX",
    "Client": "Not Customer related",
    "Start Date:": "24/01/2023",
    "Priority:": 90,
    "latitude": 52.5657544,
    "longitude": 1.3806685
  },
  {
    "Job No.": "MI38097",
    "Description": "2nd fix outbuilding as instructed",
    "address": "19 Wheel Road Alpington NR14 7RX",
    "Client": "Mr Day",
    "Start Date:": "20/01/2023",
    "Priority:": 90,
    "latitude": 52.5657544,
    "longitude": 1.3806685
  },
  {
    "Job No.": "NPS38060",
    "Description": "100% visual EICR",
    "address": "Cantley Primary School NR13 3SA",
    "Client": "Norfolk County Council*",
    "Start Date:": "14/01/2023",
    "Priority:": 90,
    "latitude": 52.58603189999999,
    "longitude": 1.5076457
  },
  {
    "Job No.": "NPS38058",
    "Description": "100% visual EICR",
    "address": "St Johns Primary NR12 8NX",
    "Client": "Norfolk County Council*",
    "Start Date:": "14/01/2023",
    "Priority:": 90,
    "latitude": 52.7123186,
    "longitude": 1.415514
  },
  {
    "Job No.": "WA38052",
    "Description": "Attend communal heaters in the common areas we have received complaints the heater are on all day ",
    "address": "Canon Wharf King St NR1 2FG",
    "Client": "Watsons Management*",
    "Start Date:": "13/01/2023",
    "Priority:": 90,
    "latitude": 52.6223515,
    "longitude": 1.3044093
  },
  {
    "Job No.": "DI38054",
    "Description": "Replace Kitchen lights with led fitting and remedial from EICR ",
    "address": "16 Colman Rd Lowestoft NR32 4PL",
    "Client": "Diocese of Norwich*",
    "Start Date:": "13/01/2023",
    "Priority:": 90,
    "latitude": 52.5163516,
    "longitude": 1.7430786
  },
  {
    "Job No.": "WA38048",
    "Description": "Rermedials to Block A,B&C from EICR ",
    "address": "Chapelfield Flats, Norwich",
    "Client": "Watsons Management*",
    "Start Date:": "13/01/2023",
    "Priority:": 90,
    "latitude": 52.6269775,
    "longitude": 1.2886378
  },
  {
    "Job No.": "MI38044",
    "Description": "Remedials following EICR ",
    "address": "Little Witchingham Hall Reepham Rd Little Witchingham NR9 5NY",
    "Client": "Mr & Mrs Barnes",
    "Start Date:": "13/01/2023",
    "Priority:": 90,
    "latitude": 52.7240697,
    "longitude": 1.1249777
  },
  {
    "Job No.": "NP37948",
    "Description": "Attend to outside lighting column Access equipment may be required but please attend first to assess",
    "address": "Sparhawk Infant Scl Sprowston NR7 8BU",
    "Client": "Norfolk County Council*",
    "Start Date:": "05/01/2023",
    "Priority:": 90,
    "latitude": 52.65748139999999,
    "longitude": 1.3284016
  },
  {
    "Job No.": "NOR37950",
    "Description": "Attend to install 2 no lights follow repair to ceiling after water leak as quote",
    "address": "Spring dale care home Brundall NR13 5QY",
    "Client": "Norse Eastern Ltd*",
    "Start Date:": "05/01/2023",
    "Priority:": 90,
    "latitude": 52.6268333,
    "longitude": 1.4247818
  },
  {
    "Job No.": "WR37965",
    "Description": "design and works as required",
    "address": "Kerrison House, Horsey, Norfolk",
    "Client": "Wroxham Builders*",
    "Start Date:": "06/01/2023",
    "Priority:": 1000,
    "latitude": 52.7501812,
    "longitude": 1.6514533
  },
  {
    "Job No.": "AR37914",
    "Description": "locate emergency lights number lights and produce log book as quote",
    "address": "Norvic House NR2 1RP",
    "Client": "Arnolds Keys LLP",
    "Start Date:": "28/12/2022",
    "Priority:": 90,
    "latitude": 52.6269683,
    "longitude": 1.2859288
  },
  {
    "Job No.": "AR37913",
    "Description": "lighting repairs as quote",
    "address": "Norvic House NR2 1RP",
    "Client": "Arnolds Keys LLP",
    "Start Date:": "28/12/2022",
    "Priority:": 90,
    "latitude": 52.6269683,
    "longitude": 1.2859288
  },
  {
    "Job No.": "NP37775",
    "Description": "attend to check safety lighting on site",
    "address": "Recreation Road Sports Centre NR2 3PA",
    "Client": "Norfolk County Council*",
    "Start Date:": "15/12/2022",
    "Priority:": 90,
    "latitude": 52.628228,
    "longitude": 1.268277
  },
  {
    "Job No.": "BR37691",
    "Description": "EICR",
    "address": "Gardners Cottage Barton Turf NR12 8AU",
    "Client": "Brown & Co",
    "Start Date:": "07/12/2022",
    "Priority:": 90,
    "latitude": 52.74688519999999,
    "longitude": 1.4871564
  },
  {
    "Job No.": "DI37533",
    "Description": "EICR",
    "address": "363 Earlham Road Norwich NR2 3RQ",
    "Client": "Diocese of Norwich*",
    "Start Date:": "25/11/2022",
    "Priority:": 90,
    "latitude": 52.6297501,
    "longitude": 1.2622577
  },
  {
    "Job No.": "DI37573",
    "Description": "EICR",
    "address": "12 Pinewood Drive Horning NR12 8LZ",
    "Client": "Diocese of Norwich*",
    "Start Date:": "25/11/2022",
    "Priority:": 90,
    "latitude": 52.7029083,
    "longitude": 1.4663632
  },
  {
    "Job No.": "DI37572",
    "Description": "~EICR",
    "address": "62 Avocet Rise Sprowston NR7 8ES",
    "Client": "Diocese of Norwich*",
    "Start Date:": "25/11/2022",
    "Priority:": 90,
    "latitude": 52.6589057,
    "longitude": 1.3415663
  },
  {
    "Job No.": "DI37571",
    "Description": "EICR",
    "address": "8 Robert Gybson Way NR3 3PH",
    "Client": "Diocese of Norwich*",
    "Start Date:": "25/11/2022",
    "Priority:": 90,
    "latitude": 52.6320881,
    "longitude": 1.2897712
  },
  {
    "Job No.": "DI37568",
    "Description": "EICR",
    "address": "St Thomas Vicarage 77 Edinburgh Road, Norwich NR2 3RL",
    "Client": "Diocese of Norwich*",
    "Start Date:": "25/11/2022",
    "Priority:": 90,
    "latitude": 52.6304001,
    "longitude": 1.2719888
  },
  {
    "Job No.": "DI37566",
    "Description": "EICR",
    "address": "Holy Trinity Rectory, 17 Essex Street, Norwich NR2 2BL",
    "Client": "Diocese of Norwich*",
    "Start Date:": "25/11/2022",
    "Priority:": 90,
    "latitude": 52.6248892,
    "longitude": 1.2809696
  },
  {
    "Job No.": "DI37562",
    "Description": "EICR",
    "address": "The Rectory School Lane Martham NR29 4PX",
    "Client": "Diocese of Norwich*",
    "Start Date:": "25/11/2022",
    "Priority:": 90,
    "latitude": 52.70538699999999,
    "longitude": 1.628141
  },
  {
    "Job No.": "DI37561",
    "Description": "EICR",
    "address": "The Beeches 58 Church Lane Sprowston NR7 8AZ",
    "Client": "Diocese of Norwich*",
    "Start Date:": "25/11/2022",
    "Priority:": 90,
    "latitude": 52.6617291,
    "longitude": 1.3244412
  },
  {
    "Job No.": "DI37560",
    "Description": "EICR",
    "address": "The Rectory 24 Brook Street Buxton NR10 5HF",
    "Client": "Diocese of Norwich*",
    "Start Date:": "25/11/2022",
    "Priority:": 90,
    "latitude": 52.7511492,
    "longitude": 1.3001656
  },
  {
    "Job No.": "DI37557",
    "Description": "EICR",
    "address": "The Newlands 15 Blue Boar Lane NR7 8RX",
    "Client": "Diocese of Norwich*",
    "Start Date:": "25/11/2022",
    "Priority:": 90,
    "latitude": 52.6600015,
    "longitude": 1.3318686
  },
  {
    "Job No.": "DI37554",
    "Description": "EICR",
    "address": "The Vicarage Withergate Worstead NR28 9SE",
    "Client": "Diocese of Norwich*",
    "Start Date:": "25/11/2022",
    "Priority:": 90,
    "latitude": 52.7864914,
    "longitude": 1.4096701
  },
  {
    "Job No.": "DI37552",
    "Description": "EICR",
    "address": "The Rectory Knapton Road Trunch NR28 0QE",
    "Client": "Diocese of Norwich*",
    "Start Date:": "25/11/2022",
    "Priority:": 90,
    "latitude": 52.8604197,
    "longitude": 1.4028818
  },
  {
    "Job No.": "DI37551",
    "Description": "EICR",
    "address": "The Rectory Campingfield Lane Stalham NR12 9DT",
    "Client": "Diocese of Norwich*",
    "Start Date:": "25/11/2022",
    "Priority:": 90,
    "latitude": 52.7739973,
    "longitude": 1.5163922
  },
  {
    "Job No.": "DI37549",
    "Description": "EICR",
    "address": "The Vicarage 2&4 Wroxham Road NR7 8TZ",
    "Client": "Diocese of Norwich*",
    "Start Date:": "25/11/2022",
    "Priority:": 90,
    "latitude": 52.6530725,
    "longitude": 1.313311
  },
  {
    "Job No.": "DI37548",
    "Description": "EICR",
    "address": "The Rectory Buxton Road Spixworth NR10 3PR",
    "Client": "Diocese of Norwich*",
    "Start Date:": "25/11/2022",
    "Priority:": 90,
    "latitude": 52.6944617,
    "longitude": 1.3143784
  },
  {
    "Job No.": "DI37547",
    "Description": "EICR",
    "address": "The Rectory Clipped Bush Lane Soutrepps NR11 8NS",
    "Client": "Diocese of Norwich*",
    "Start Date:": "24/11/2022",
    "Priority:": 90,
    "latitude": 52.8814582,
    "longitude": 1.3492858
  },
  {
    "Job No.": "DI37536",
    "Description": "EICR",
    "address": "The Rectory Gimingham Road Mundesley NR11 8DG",
    "Client": "Diocese of Norwich*",
    "Start Date:": "24/11/2022",
    "Priority:": 90,
    "latitude": 52.8809556,
    "longitude": 1.4264197
  },
  {
    "Job No.": "DI37528",
    "Description": "EICR",
    "address": "12 Fulton Close Norwich NR4 6HX",
    "Client": "Diocese of Norwich*",
    "Start Date:": "24/11/2022",
    "Priority:": 90,
    "latitude": 52.6079574,
    "longitude": 1.2654102
  },
  {
    "Job No.": "DI37539",
    "Description": "EICR",
    "address": "40 Heigham Road NR2 3AU",
    "Client": "Diocese of Norwich*",
    "Start Date:": "24/11/2022",
    "Priority:": 90,
    "latitude": 52.6324246,
    "longitude": 1.2784636
  },
  {
    "Job No.": "DI37543",
    "Description": "EICR",
    "address": "12 The Crescent Norwich NR2 1SA",
    "Client": "Diocese of Norwich*",
    "Start Date:": "24/11/2022",
    "Priority:": 90,
    "latitude": 52.6251647,
    "longitude": 1.2872363
  },
  {
    "Job No.": "DI37386",
    "Description": "Remedials following EICR ",
    "address": "Revd Stephen Deall The Rectory Church Walk Bradwell NR31 8QQ",
    "Client": "Diocese of Norwich c/o Spire Property Consultants Ltd",
    "Start Date:": "11/11/2022",
    "Priority:": 90,
    "latitude": 52.574461,
    "longitude": 1.6889839
  },
  {
    "Job No.": "RO37269",
    "Description": "Carry out EICR to common parts",
    "address": "Halding Jaquard House, Old Bank of England Court, Norwich",
    "Client": "Roche Chartered Surveyors*",
    "Start Date:": "02/11/2022",
    "Priority:": 90,
    "latitude": 52.63070099999999,
    "longitude": 1.2977717
  },
  {
    "Job No.": "MI37142",
    "Description": "Attend to carry out remedials including ",
    "address": "Stalham Infant School Old Yarmouth NR12 9PS",
    "Client": "Broad Horizons Education Trust*",
    "Start Date:": "19/10/2022",
    "Priority:": 90,
    "latitude": 52.772261,
    "longitude": 1.5169961
  },
  {
    "Job No.": "MI36814",
    "Description": "Replace fittings with led as quote ",
    "address": "Bradenham Hall",
    "Client": "Bradenham Hall Farms",
    "Start Date:": "26/09/2022",
    "Priority:": 90,
    "latitude": 52.6528901,
    "longitude": 0.8417022
  },
  {
    "Job No.": "MI36619",
    "Description": "Works to kitchen ",
    "address": "Ingham Hall NR12 OTL",
    "Client": "Mr L Guthrie",
    "Start Date:": "05/09/2022",
    "Priority:": 90,
    "latitude": 52.7794057,
    "longitude": 1.547761
  },
  {
    "Job No.": "WR36571",
    "Description": "carry out EICR",
    "address": "Wood Farm Swanton Abbott",
    "Client": "Wroxham Builders",
    "Start Date:": "30/08/2022",
    "Priority:": 1000,
    "latitude": 52.778939,
    "longitude": 1.356096
  },
  {
    "Job No.": "WR36131",
    "Description": "Works as quote",
    "address": "Westbury Travers Tunstead Rd Hoveton NR12 8QN",
    "Client": "Wroxham Builders",
    "Start Date:": "01/07/2022",
    "Priority:": 1000,
    "latitude": 52.7173507,
    "longitude": 1.4132335
  },
  {
    "Job No.": "NOR35699",
    "Description": "investigate heating fault ",
    "address": "Strangers Hall",
    "Client": "Norse Eastern Ltd*",
    "Start Date:": "09/05/2022",
    "Priority:": 90,
    "latitude": 52.6307068,
    "longitude": 1.2924808
  },
  {
    "Job No.": "DI36333",
    "Description": "garden lighting ",
    "address": "Lynn House Dereham, Norfolk NR12 1AF",
    "Client": "Diocese of Norwich*",
    "Start Date:": "26/07/2022",
    "Priority:": 90,
    "latitude": 52.68161800000001,
    "longitude": 0.937827
  },
  {
    "Job No.": "DI34317",
    "Description": "EICR ",
    "address": "The Rectory 60 The st Geldeston NR34 OLN",
    "Client": "Diocese of Norwich*",
    "Start Date:": "31/12/2021",
    "Priority:": 90,
    "latitude": 52.4727865,
    "longitude": 1.5247345
  },
  {
    "Job No.": "DI34304",
    "Description": "EICR ",
    "address": "The Rectory 8 Kilderkin Way MR1 1RD",
    "Client": "Diocese of Norwich*",
    "Start Date:": "30/12/2021",
    "Priority:": 90,
    "latitude": 52.6253515,
    "longitude": 1.3006398
  },
  {
    "Job No.": "DI34302",
    "Description": "EICR ",
    "address": "The Rectory 29 Ashby Rd Thurton NR14 6AX",
    "Client": "Diocese of Norwich*",
    "Start Date:": "30/12/2021",
    "Priority:": 90,
    "latitude": 52.5597613,
    "longitude": 1.4323644
  },
  {
    "Job No.": "DI34240",
    "Description": "remedials ",
    "address": "St Marys Bessingham",
    "Client": "Diocese of Norwich*",
    "Start Date:": "21/12/2021",
    "Priority:": 90,
    "latitude": 52.8864349,
    "longitude": 1.2205379
  },
  {
    "Job No.": "WR32382",
    "Description": "Electrical works",
    "address": "93 Lower Street NR12 8PF",
    "Client": "Wroxham Builders",
    "Start Date:": "16/06/2021",
    "Priority:": 1000,
    "latitude": 52.7023968,
    "longitude": 1.4647765
  }
]